<markers>
<marker name="aavalahalli" lat="13.035" lon="77.736"/>
<marker name="basavanapura" lat="13.0132" lon="77.7156"/>
<marker name="harichitta" lat="13.0485" lon="77.7369"/>
<marker name="kannamangala" lat="13.0273" lon="77.7707"/>
<marker name="kattanallur" lat="13.0513" lon="77.766"/>
<marker name="konadasapura" lat="13.0453" lon="77.7531"/>
<marker name="medahalli" lat="13.0267" lon="77.7174"/>
<marker name="parvathinagar" lat="13.0331" lon="77.7157"/>
<marker name="sonnenahalli" lat="13.0147" lon="77.7383"/>
</markers>